{"locations":[{"name":"Chennai","city":"Tamil Nadu","country":"India","displayType":"Location","placeId":"ChIJYTN9T-plUjoRM9RjaAunYW4","source":"google","googleType":{"typeNameEn":"City","typeNameAr":"مدينة"}},{"name":"Chennai International Airport (MAA)","city":"Tamil Nadu","country":"India","displayType":"Location","placeId":"ChIJl2OoXR9eUjoRR27ibiEvCSE","source":"google","googleType":{"typeNameEn":"Airport","typeNameAr":"المطار"}},{"name":"Chennai Central","city":"Chennai Central","country":"Tamil Nadu","displayType":"Location","placeId":"ChIJadvLSHJmUjoRSyePSmitDsQ","source":"google","googleType":null},{"name":"Chennai Domestic Airport","city":"Tamil Nadu","country":"India","displayType":"Location","placeId":"ChIJFfaZG3tfUjoRc9GS3lZklxw","source":"google","googleType":{"typeNameEn":"Airport","typeNameAr":"المطار"}},{"name":"Chennai Central (MAS)","city":"Tamil Nadu","country":"India","displayType":"Location","placeId":"ChIJZWIhof9lUjoRFgkVYkVw7kc","source":"google","googleType":{"typeNameEn":"Train Station","typeNameAr":"محطة قطار"}}],"hotels":[{"hotelId":1470928,"name":"Ibis Chennai Omr","city":"Chennai","country":"India","thumbnail_url":"https://az712897.vo.msecnd.net/images/full/2cb02d6f-bea0-47d0-a747-41d53dc173b9.jpeg","displayType":"Hotel","latitude":12.90522,"longitude":80.22923,"isActive":true},{"hotelId":1469855,"name":"Novotel Chennai OMR","city":"Chennai","country":"India","thumbnail_url":"https://az712897.vo.msecnd.net/images/full/60ffd500-4ab6-49d8-a093-e37ace356b9b.jpeg","displayType":"Hotel","latitude":12.83099,"longitude":80.23048,"isActive":true},{"hotelId":1485738,"name":"Formule1 Chennai Omr An AccorHotels Brand","city":"Chennai","country":"India","thumbnail_url":"https://az712897.vo.msecnd.net/images/full/5b95896b-466d-4f3b-9034-986364cec353.jpeg","displayType":"Hotel","latitude":12.93029,"longitude":80.23161,"isActive":true},{"hotelId":1356912,"name":"Ulo Chennai Stays","city":"Chennai","country":"India","thumbnail_url":"https://az712897.vo.msecnd.net/images/full/c09ec470-f76f-41ee-9c99-b4889511d8fb.jpeg","displayType":"Hotel","latitude":13.04934,"longitude":80.24488,"isActive":true},{"hotelId":1317169,"name":"ibis Chennai Sipcot","city":"Chennai","country":"India","thumbnail_url":"http://hotelcms-contents-live.tajawal.com/8674d15c-1d18-4ec8-bf81-c2d3989eddfc.jpg","displayType":"Hotel","latitude":12.83106,"longitude":80.23002,"isActive":true}]}