{"locations":[{"name":"Maastricht","city":"Maastricht","country":"Netherlands","displayType":"Location","placeId":"ChIJnwZBWOzpwEcRbqi-zHuV61M","source":"google","googleType":{"typeNameEn":"City","typeNameAr":"مدينة"}},{"name":"Maassluis","city":"Maassluis","country":"Netherlands","displayType":"Location","placeId":"ChIJHzyxKWy-xkcRerSDwExaGdY","source":"google","googleType":{"typeNameEn":"City","typeNameAr":"مدينة"}},{"name":"Maarssen","city":"Maarssen","country":"Netherlands","displayType":"Location","placeId":"ChIJs_H-hDtuxkcRnr_8qQXTfJ0","source":"google","googleType":{"typeNameEn":"City","typeNameAr":"مدينة"}},{"name":"Maasmechelen","city":"Maasmechelen","country":"Belgium","displayType":"Location","placeId":"ChIJ0xlmxofEwEcRwFz8TDdkBOc","source":"google","googleType":{"typeNameEn":"City","typeNameAr":"مدينة"}},{"name":"Maadi","city":"Maadi","country":"Egypt","displayType":"Location","placeId":"ChIJ41H1uAk4WBQRo7SKu_7FZWI","source":"google","googleType":{"typeNameEn":"Area","typeNameAr":"منطقة"}}],"hotels":[{"hotelId":1794998,"name":"Maalaea Banyans #403 2 Bathrooms Condo","city":"Wailuku","country":"United States","thumbnail_url":"http://hotelcms-contents-live.tajawal.com/eadd018b-e9de-4732-af10-4db71925f379.jpg","displayType":"Hotel","latitude":20.79554,"longitude":-156.50639,"isActive":true},{"hotelId":1773720,"name":"Maalaea Surf Resort","city":"Kihei","country":"United States","thumbnail_url":"https://az712897.vo.msecnd.net/images/full/0b359a42-2029-4eff-88fc-3eeb2fb994c2.jpeg","displayType":"Hotel","latitude":20.78345,"longitude":-156.46448,"isActive":true},{"hotelId":1584123,"name":"Maalaea Surf Resort #C 3 Condo","city":"Kihei","country":"United States","thumbnail_url":"https://az712897.vo.msecnd.net/images/full/286c50b1-a73f-4664-9529-44d545b0cc39.jpeg","displayType":"Hotel","latitude":20.78378,"longitude":-156.46454,"isActive":true},{"hotelId":1701741,"name":"Maan Talay Resort","city":"Songkhla","country":"Thailand","thumbnail_url":"https://az712897.vo.msecnd.net/images/full/11cb640f-35c4-4cd3-a8c0-8905280803c7.jpeg","displayType":"Hotel","latitude":7.14326,"longitude":100.60326,"isActive":true},{"hotelId":1530521,"name":"Mâª Dolores Perera","city":"Puerto Del Carmen","country":"Spain","thumbnail_url":"","displayType":"Hotel","latitude":28.92525,"longitude":-13.63888,"isActive":true}]}