{"locations":[{"name":"London","city":"London","country":"UK","displayType":"Location","placeId":"ChIJdd4hrwug2EcRmSrV3Vo6llI","source":"google","googleType":{"typeNameEn":"City","typeNameAr":"مدينة"}},{"name":"London","city":"ON","country":"Canada","displayType":"Location","placeId":"ChIJC5uNqA7yLogRlWsFmmnXxyg","source":"google","googleType":{"typeNameEn":"City","typeNameAr":"مدينة"}},{"name":"London Bridge","city":"London","country":"UK","displayType":"Location","placeId":"ChIJxRO7WVEDdkgRrGM1fCYoHqY","source":"google","googleType":{"typeNameEn":"Area","typeNameAr":"منطقة"}},{"name":"London Eye","city":"London","country":"UK","displayType":"Location","placeId":"ChIJc2nSALkEdkgRkuoJJBfzkUI","source":"google","googleType":null},{"name":"London","city":"KY","country":"USA","displayType":"Location","placeId":"ChIJA8c2lxTNXIgRmMwHc-RRGWI","source":"google","googleType":{"typeNameEn":"City","typeNameAr":"مدينة"}}],"hotels":[{"hotelId":1724767,"name":"London Riverside House","city":"London","country":"United Kingdom","thumbnail_url":"https://az712897.vo.msecnd.net/images/full/8c17924b-7195-4d5d-96f7-ffa69da71c15.jpeg","displayType":"Hotel","latitude":51.49867,"longitude":-0.00812,"isActive":true},{"hotelId":1766544,"name":"London Queen s Central","city":"London","country":"United Kingdom","thumbnail_url":"https://az712897.vo.msecnd.net/images/full/29f94eab-98ad-45e3-a717-20cb79416592.jpeg","displayType":"Hotel","latitude":51.53205,"longitude":-0.13571,"isActive":true},{"hotelId":1772727,"name":"London Villa 20 Princes Square","city":"London","country":"United Kingdom","thumbnail_url":"https://az712897.vo.msecnd.net/images/full/61fa2f9a-b107-463c-b822-6906f86265b9.jpeg","displayType":"Hotel","latitude":51.51286,"longitude":-0.19137,"isActive":true},{"hotelId":1772607,"name":"London Villa 43 Clanricarde Gardens","city":"London","country":"United Kingdom","thumbnail_url":"https://az712897.vo.msecnd.net/images/full/c3350a4e-0454-485f-bea4-2b2030244564.jpeg","displayType":"Hotel","latitude":51.51123,"longitude":-0.19339,"isActive":true},{"hotelId":1772603,"name":"London Villa 13 Talbot Square","city":"London","country":"United Kingdom","thumbnail_url":"https://az712897.vo.msecnd.net/images/full/c0a9e674-1ba0-4b95-8319-ba0247bd1172.jpeg","displayType":"Hotel","latitude":51.51483,"longitude":-0.17504,"isActive":true}]}